[
    {
        "name": "Grezzo",
        "type": "Pastry Shop",
        "latitude": 41.8966806,
        "longitude": 12.4945351,
        "streetAddress": "Via Urbana 130, 00184 Roma RM"
    },
   {
       "name": "Pasticceria Bompiani",
       "type": "Pastry Shop",
       "latitude": 41.8591079,
       "longitude": 12.5022925,
       "streetAddress": "Via Benedetto Bompiani, 8, 00147 Roma RM"
   },
   {
       "name": "Cristalli di Zucchero",
       "type": "Pastry Shop",
       "latitude": 41.8693226,
       "longitude": 12.4466139,
       "streetAddress": "Via di Val Tellina, 114, 00151 Roma RM"
   },
   {
       "name": "Casa Manfredi",
       "type": "Pastry Shop",
       "latitude": 41.881162,
       "longitude": 12.484784,
       "streetAddress": "Viale Aventino, 91/93, 00153 Roma RM"
   },
   {
       "name": "Andrea De Bellis",
       "type": "Pastry Shop",
       "latitude": 41.895964,
       "longitude": 12.471644,
       "streetAddress": "Piazza del Paradiso, 56/57, 00186 Roma RM"
   },
   {
       "name": "Le Levain",
       "type": "Pastry Shop",
       "latitude": 41.8871036,
       "longitude": 12.4687418,
       "streetAddress": "Via Luigi Santini, 22, 00153 Roma RM"
   },
   {
       "name": "Regoli Pasticceria",
       "type": "Pastry Shop",
       "latitude": 41.8951025,
       "longitude": 12.4987038,
       "streetAddress": "Via dello Statuto, 60, 00185 Roma RM"
   },
    {
       "name": "Antica Pasticceria Faggiani",
       "type": "Pastry Shop",
       "latitude": 41.9141922,
       "longitude": 12.4620649,
       "streetAddress": "Via Giuseppe Ferrari, 23, 00195 Roma RM"
   }
   ,{
       "name": "Pasticceria Cinque Lune",
       "type": "Pastry Shop",
       "latitude": 41.8995866,
       "longitude": 12.4716013,
       "streetAddress": "Corso del Rinascimento, 89, 00186 Roma RM"
   }
    ,{
       "name": "Pasticceria Lotti",
       "type": "Pastry Shop",
       "latitude": 41.9091452,
       "longitude": 12.4193243,
       "streetAddress": "Via Sardegna, 14, 00187 Roma RM"
   }


]
